[
  {
    "id": "hotpot-king",
    "name": "火鍋王",
    "type": "火鍋",
    "price": "1000+",
    "time": ["lunch", "dinner"],
    "tags": ["牛肉", "辣", "湯"],
    "image": "./assets/food-card.svg",
    "address": "台北市中正區信陽街5號",
    "location": { "lat": 25.0448, "lng": 121.5148 },
    "googleMapsUrl": "https://www.google.com/maps/search/?api=1&query=%E5%8F%B0%E5%8C%97%E5%B8%82%E4%B8%AD%E6%AD%A3%E5%8D%80%E4%BF%A1%E9%99%BD%E8%A1%975%E8%99%9F"
  },
  {
    "id": "bento-house",
    "name": "便當小館",
    "type": "便當",
    "price": "0-200",
    "time": ["lunch", "dinner"],
    "tags": ["雞肉", "飯", "蛋"],
    "image": "./assets/food-card.svg",
    "address": "台北市中正區南陽街18號",
    "location": { "lat": 25.0442, "lng": 121.5162 },
    "googleMapsUrl": "https://www.google.com/maps/search/?api=1&query=%E5%8F%B0%E5%8C%97%E5%B8%82%E4%B8%AD%E6%AD%A3%E5%8D%80%E5%8D%97%E9%99%BD%E8%A1%9718%E8%99%9F"
  },
  {
    "id": "late-night-fried-chicken",
    "name": "深夜鹽酥雞",
    "type": "炸物",
    "price": "200-500",
    "time": ["dinner", "late-night"],
    "tags": ["雞肉", "酥脆", "辣"],
    "image": "./assets/food-card.svg",
    "address": "台北市萬華區成都路92號",
    "location": { "lat": 25.0422, "lng": 121.5078 },
    "googleMapsUrl": "https://www.google.com/maps/search/?api=1&query=%E5%8F%B0%E5%8C%97%E5%B8%82%E8%90%AC%E8%8F%AF%E5%8D%80%E6%88%90%E9%83%BD%E8%B7%AF92%E8%99%9F"
  },
  {
    "id": "noodle-shop",
    "name": "巷口麵店",
    "type": "麵食",
    "price": "0-200",
    "time": ["lunch", "dinner", "late-night"],
    "tags": ["豬肉", "湯", "香菇"],
    "image": "./assets/food-card.svg",
    "address": "台北市大同區赤峰街31號",
    "location": { "lat": 25.0568, "lng": 121.5201 },
    "googleMapsUrl": "https://www.google.com/maps/search/?api=1&query=%E5%8F%B0%E5%8C%97%E5%B8%82%E5%A4%A7%E5%90%8C%E5%8D%80%E8%B5%A4%E5%B3%B0%E8%A1%9731%E8%99%9F"
  },
  {
    "id": "sushi-bar",
    "name": "壽司吧",
    "type": "壽司",
    "price": "500-1000",
    "time": ["lunch", "dinner"],
    "tags": ["海鮮", "飯", "清爽"],
    "image": "./assets/food-card.svg",
    "address": "台北市中山區南京西路15號",
    "location": { "lat": 25.0525, "lng": 121.5206 },
    "googleMapsUrl": "https://www.google.com/maps/search/?api=1&query=%E5%8F%B0%E5%8C%97%E5%B8%82%E4%B8%AD%E5%B1%B1%E5%8D%80%E5%8D%97%E4%BA%AC%E8%A5%BF%E8%B7%AF15%E8%99%9F"
  },
  {
    "id": "veggie-garden",
    "name": "蔬食花園",
    "type": "素食",
    "price": "200-500",
    "time": ["lunch", "dinner"],
    "tags": ["素食", "沙拉", "香菇"],
    "image": "./assets/food-card.svg",
    "address": "台北市大安區和平東路二段118巷6號",
    "location": { "lat": 25.0267, "lng": 121.5439 },
    "googleMapsUrl": "https://www.google.com/maps/search/?api=1&query=%E5%8F%B0%E5%8C%97%E5%B8%82%E5%A4%A7%E5%AE%89%E5%8D%80%E5%92%8C%E5%B9%B3%E6%9D%B1%E8%B7%AF%E4%BA%8C%E6%AE%B5118%E5%B7%B76%E8%99%9F"
  },
  {
    "id": "breakfast-toast-club",
    "name": "晨光吐司",
    "type": "早餐",
    "price": "0-200",
    "time": ["breakfast", "lunch"],
    "tags": ["蛋", "吐司", "咖啡"],
    "image": "./assets/food-card.svg",
    "address": "台北市中正區公園路22號",
    "location": { "lat": 25.0461, "lng": 121.5141 },
    "googleMapsUrl": "https://www.google.com/maps/search/?api=1&query=%E5%8F%B0%E5%8C%97%E5%B8%82%E4%B8%AD%E6%AD%A3%E5%8D%80%E5%85%AC%E5%9C%92%E8%B7%AF22%E8%99%9F"
  },
  {
    "id": "curry-corner",
    "name": "咖哩角落",
    "type": "咖哩",
    "price": "200-500",
    "time": ["lunch", "dinner"],
    "tags": ["牛肉", "辣", "飯"],
    "image": "./assets/food-card.svg",
    "address": "台北市松山區八德路三段155號",
    "location": { "lat": 25.0481, "lng": 121.5572 },
    "googleMapsUrl": "https://www.google.com/maps/search/?api=1&query=%E5%8F%B0%E5%8C%97%E5%B8%82%E6%9D%BE%E5%B1%B1%E5%8D%80%E5%85%AB%E5%BE%B7%E8%B7%AF%E4%B8%89%E6%AE%B5155%E8%99%9F"
  },
  {
    "id": "dumpling-lane",
    "name": "餃子巷",
    "type": "水餃",
    "price": "0-200",
    "time": ["lunch", "dinner"],
    "tags": ["豬肉", "蒸", "湯"],
    "image": "./assets/food-card.svg",
    "address": "台北市中山區民生東路一段23巷12號",
    "location": { "lat": 25.0589, "lng": 121.5266 },
    "googleMapsUrl": "https://www.google.com/maps/search/?api=1&query=%E5%8F%B0%E5%8C%97%E5%B8%82%E4%B8%AD%E5%B1%B1%E5%8D%80%E6%B0%91%E7%94%9F%E6%9D%B1%E8%B7%AF%E4%B8%80%E6%AE%B523%E5%B7%B712%E8%99%9F"
  },
  {
    "id": "bbq-yard",
    "name": "燒肉院子",
    "type": "燒肉",
    "price": "1000+",
    "time": ["dinner", "late-night"],
    "tags": ["牛肉", "炭烤", "辣"],
    "image": "./assets/food-card.svg",
    "address": "台北市信義區松壽路18號",
    "location": { "lat": 25.0352, "lng": 121.5675 },
    "googleMapsUrl": "https://www.google.com/maps/search/?api=1&query=%E5%8F%B0%E5%8C%97%E5%B8%82%E4%BF%A1%E7%BE%A9%E5%8D%80%E6%9D%BE%E5%A3%BD%E8%B7%AF18%E8%99%9F"
  },
  {
    "id": "ramen-bunker",
    "name": "拉麵基地",
    "type": "拉麵",
    "price": "200-500",
    "time": ["lunch", "dinner", "late-night"],
    "tags": ["豬肉", "蛋", "湯"],
    "image": "./assets/food-card.svg",
    "address": "台北市中山區林森北路107巷14號",
    "location": { "lat": 25.0499, "lng": 121.5249 },
    "googleMapsUrl": "https://www.google.com/maps/search/?api=1&query=%E5%8F%B0%E5%8C%97%E5%B8%82%E4%B8%AD%E5%B1%B1%E5%8D%80%E6%9E%97%E6%A3%AE%E5%8C%97%E8%B7%AF107%E5%B7%B714%E8%99%9F"
  },
  {
    "id": "taco-stop",
    "name": "塔可小站",
    "type": "塔可",
    "price": "200-500",
    "time": ["lunch", "dinner", "late-night"],
    "tags": ["牛肉", "雞肉", "辣"],
    "image": "./assets/food-card.svg",
    "address": "台北市大安區延吉街131巷26號",
    "location": { "lat": 25.0418, "lng": 121.5536 },
    "googleMapsUrl": "https://www.google.com/maps/search/?api=1&query=%E5%8F%B0%E5%8C%97%E5%B8%82%E5%A4%A7%E5%AE%89%E5%8D%80%E5%BB%B6%E5%90%89%E8%A1%97131%E5%B7%B726%E8%99%9F"
  }
]
